[
    {
        "name": "Gateway 180",
        "address": "1000 N. 19th St., St. Louis, MO 63106",
        "latitude": "38.637485",
        "longitude": "-90.204722",
        "phone_number": "(314) 231-1515",
        "coc_type": "shelter",
        "beds_total": "174",
        "beds_available": "174",
        "allow_single_men": false,
        "allow_single_women": true,
        "allow_family": true,
        "allow_veteran": false
    },
    {
        "name": "Loaves & Fishes Inc.",
        "address": "2750 McKelvey Rd, Maryland Heights, MO 63043",
        "latitude": "38.733234",
        "longitude": "-90.445707",
        "phone_number": "(314) 291-3857",
        "coc_type": "shelter",
        "beds_total": "29",
        "beds_available": "29",
        "require_pregnant": false,
        "allow_single_men": false,
        "allow_single_women": true,
        "allow_family": true,
        "allow_veteran": false
    },
    {
        "name": "12th & Park Shelter",
        "address": "1410 S Tucker Blvd, St. Louis, MO 63104",
        "latitude": "38.613989",
        "longitude": "-90.204511",
        "phone_number": "",
        "coc_type": "shelter",
        "beds_total": "125",
        "beds_available": "125",
        "require_pregnant": false,
        "allow_single_men": true,
        "allow_single_women": false,
        "allow_family": false,
        "allow_veteran": false
    },
    {
        "name": "Our Lady's Inn",
        "address": "4223 S. Compton, St. Louis, MO 6311",
        "latitude": "38.579793",
        "longitude": "-90.240276",
        "phone_number": "(314) 351-4590",
        "coc_type": "shelter",
        "beds_total": "18",
        "beds_available": "18",
        "require_pregnant": true,
        "allow_single_men": false,
        "allow_single_women": true,
        "allow_family": true,
        "allow_veteran": false
    },
    {
        "name": "Peter & Paul",
        "address": "711 Allen Ave, St. Louis, MO 63104",
        "latitude": "38.607149",
        "longitude": "-90.203700",
        "phone_number": "(314) 621-5520",
        "coc_type": "shelter",
        "beds_total": "18",
        "beds_available": "18",
        "require_pregnant": false,
        "allow_single_men": true,
        "allow_single_women": false,
        "allow_family": false,
        "allow_veteran": true
    },
    {
        "name": "Family Care Health Center",
        "address": "4352 Manchester Ave, St. Louis, MO 63110",
        "latitude": "38.626499",
        "longitude": "-90.258016",
        "phone_number": "(314) 481-1615",
        "coc_type": "medical",
        "beds_total": "0",
        "require_pregnant": false,
        "allow_single_men": true,
        "allow_single_women": true,
        "allow_family": true,
        "allow_veteran": true
    },
    {
        "name": "Metropolitan St. Louis Equal Housing and Opportunity Council",
        "address": "1027 S. Vandeventer Avenue, 6th Floor St. Louis, MO 63110",
        "latitude": "38.627574",
        "longitude": "-90.248844",
        "phone_number": "(314) 534-5800",
        "coc_type": "law",
        "beds_total": "0",
        "require_pregnant": false,
        "allow_single_men": true,
        "allow_single_women": true,
        "allow_family": true,
        "allow_veteran": true
    },
    {
        "name": "St. Patrick Center",
        "address": "800 N. Tucker Blvd. St. Louis, MO 63101",
        "latitude": "38.633355",
        "longitude": "-90.195691",
        "phone_number": "(314) 802-0700",
        "coc_type": "housing",
        "beds_total": "0",
        "require_pregnant": false,
        "allow_single_men": true,
        "allow_single_women": true,
        "allow_family": true,
        "allow_veteran": true
    },
    {
        "name": "St. Patrick Center",
        "address": "800 N. Tucker Blvd. St. Louis, MO 63101",
        "latitude": "38.633355",
        "longitude": "-90.195691",
        "phone_number": "(314) 802-0700",
        "coc_type": "housing",
        "beds_total": "0",
        "require_pregnant": false,
        "allow_single_men": true,
        "allow_single_women": true,
        "allow_family": true,
        "allow_veteran": true
    },
    {
        "name": "Food Outreach",
        "address": "3117 Olive Street, St. Louis, MO 63103",
        "latitude": "38.635714",
        "longitude": "-90.224517",
        "phone_number": "(314) 652-3663 x114",
        "coc_type": "food",
        "beds_total": "0",
        "require_pregnant": false,
        "allow_single_men": true,
        "allow_single_women": true,
        "allow_family": true,
        "allow_veteran": true
    }

]
